{"updated":"2026-02-23T20:14:57Z","count":313,"buoys":[{"id":"gbcm6","lat":30.384,"lon":-88.436,"title":"NDBC Station GBCM6 - Bayou Cumbest, Grand Bay Reserve, MS","vars":["chlorophyll_concentration","conductivity","depth","dissolved_oxygen","latitude","longitude","o2_saturation","salinity"]},{"id":"cwwt2","lat":28.084,"lon":-97.201,"title":"NDBC Station CWWT2 - Copano Bay West, Mission-Aransas Reserve, TX","vars":["chlorophyll_concentration","conductivity","depth","dissolved_oxygen","latitude","longitude","o2_saturation","salinity"]},{"id":"adbf1","lat":29.675,"lon":-85.058,"title":"NDBC Station ADBF1 - Dry Bar, Apalachicola Reserve, FL","vars":["chlorophyll_concentration","conductivity","depth","dissolved_oxygen","latitude","longitude","o2_saturation","salinity"]},{"id":"frma1","lat":30.234,"lon":-87.994,"title":"NDBC Station FRMA1 - 8734383 - Fort Morgan, AL","vars":["air_pressure","air_temperature","average_wpd","dewpt_temperature","dominant_wpd","gust","latitude","longitude"]},{"id":"41069","lat":29.289,"lon":-80.803,"title":"NDBC Station 41069 - Ponce de Leon Inlet, FL (PNC)","vars":["air_pressure","air_temperature","average_wpd","chlorophyll_concentration","conductivity","depth","dewpt_temperature","dissolved_oxygen"],"current":{"wspd":6.0,"wdir":330.0,"atmp":8.7,"wtmp":16.7}},{"id":"41068","lat":27.593,"lon":-80.189,"title":"NDBC Station 41068 - Fort Pierce, FL (FTP)","vars":["air_pressure","air_temperature","average_wpd","chlorophyll_concentration","conductivity","depth","dewpt_temperature","dissolved_oxygen"],"current":{"wspd":7.0,"wdir":320.0,"atmp":11.2,"wtmp":21.3}},{"id":"41122","lat":26.001,"lon":-80.096,"title":"NDBC Station 41122 - Hollywood Beach, FL (265)","vars":["air_pressure","air_temperature","average_wpd","depth","dewpt_temperature","dominant_wpd","frequency","gust"],"current":{"wvht":0.8,"dpd":8.0,"atmp":20.5,"wtmp":22.3}},{"id":"kbmg1","lat":30.777,"lon":-81.487,"title":"NDBC Station KBMG1 - 8679598 - Kings Bay MSF Pier, GA","vars":["air_pressure","air_temperature","average_wpd","dewpt_temperature","dominant_wpd","gust","latitude","longitude"]},{"id":"42503","lat":25.925,"lon":-85.615,"title":"NDBC Station 42503 - SD 1036 - 208 NM West of Naples, FL (Site of 42003)","vars":[]},{"id":"42501","lat":25.942,"lon":-89.657,"title":"NDBC Station 42501 - SD 1042 - 180 nm South of Southwest Pass, LA (Site of 42001","vars":[]},{"id":"bbsf1","lat":25.472,"lon":-80.349,"title":"NDBC Station BBSF1 - BBCW10","vars":["air_pressure","air_temperature","average_wpd","chlorophyll_concentration","conductivity","depth","dewpt_temperature","dissolved_oxygen"]},{"id":"bbnf1","lat":25.601,"lon":-80.306,"title":"NDBC Station BBNF1 - BBCW8","vars":["air_pressure","air_temperature","average_wpd","chlorophyll_concentration","conductivity","depth","dewpt_temperature","dissolved_oxygen"]},{"id":"42084","lat":28.988,"lon":-89.649,"title":"NDBC Station 42084 - Southwest Pass Entrance W, LA (256)","vars":["air_pressure","air_temperature","average_wpd","depth","dewpt_temperature","dominant_wpd","frequency","gust"],"current":{"wvht":0.8,"dpd":4.0,"atmp":11.5,"wtmp":18.9}},{"id":"hivt2","lat":27.844,"lon":-97.07,"title":"NDBC Station HIVT2 - 8775223 - Harbor Island Visibility, TX","vars":["air_pressure","air_temperature","average_wpd","dewpt_temperature","dominant_wpd","gust","latitude","longitude"]},{"id":"efla1","lat":30.429,"lon":-88.01,"title":"NDBC Station EFLA1 - 8734536 - E Range Front Light Visibility, AL","vars":["air_pressure","air_temperature","average_wpd","dewpt_temperature","dominant_wpd","gust","latitude","longitude"]},{"id":"tlvt2","lat":27.819,"lon":-97.454,"title":"NDBC Station TLVT2 - 8775285 - Tule Lake Visibility, TX","vars":["air_pressure","air_temperature","average_wpd","dewpt_temperature","dominant_wpd","gust","latitude","longitude"]},{"id":"utvt2","lat":27.838,"lon":-97.052,"title":"NDBC Station UTVT2 - 8775236 - UTMSI Visibility, TX","vars":["air_pressure","air_temperature","average_wpd","dewpt_temperature","dominant_wpd","gust","latitude","longitude"]},{"id":"txvt2","lat":27.813,"lon":-97.389,"title":"NDBC Station TXVT2 - 8775302 - TX State Aquarium Visibility, TX","vars":["air_pressure","air_temperature","average_wpd","dewpt_temperature","dominant_wpd","gust","latitude","longitude"]},{"id":"ebef1","lat":27.923,"lon":-82.421,"title":"NDBC Station EBEF1 - 8726674 - East Bay, FL","vars":["air_pressure","air_temperature","average_wpd","dewpt_temperature","dominant_wpd","gust","latitude","longitude"]},{"id":"42093","lat":29.017,"lon":-89.832,"title":"NDBC Station 42093 - Grand Isle Outer, LA (247)","vars":["air_pressure","air_temperature","average_wpd","dewpt_temperature","dominant_wpd","gust","latitude","longitude"]},{"id":"42094","lat":29.085,"lon":-89.907,"title":"NDBC Station 42094 - Grand Isle, LA (246)","vars":["air_pressure","air_temperature","average_wpd","dewpt_temperature","dominant_wpd","gust","latitude","longitude"]},{"id":"42026","lat":25.171,"lon":-83.475,"title":"NDBC Station 42026 - C22 - Loop Current Pressure Point Buoy, 70m Isobath","vars":["air_pressure","air_temperature","average_wpd","chlorophyll_concentration","conductivity","depth","dewpt_temperature","dissolved_oxygen"],"current":{"wspd":10.0,"wdir":360.0,"atmp":15.5,"wtmp":22.2}},{"id":"jbyf1","lat":25.224,"lon":-80.541,"title":"NDBC Station JBYF1 - Joe Bay, FL","vars":["air_pressure","air_temperature","average_wpd","chlorophyll_concentration","conductivity","depth","dewpt_temperature","dissolved_oxygen"]},{"id":"mwqt2","lat":27.838,"lon":-97.05,"title":"NDBC Station MWQT2 - Ship Channel, Mission-Aransas Reserve, TX","vars":["chlorophyll_concentration","conductivity","depth","dissolved_oxygen","latitude","longitude","o2_saturation","salinity"]},{"id":"mqmt2","lat":28.138,"lon":-96.829,"title":"NDBC Station MQMT2 - Mesquite Bay, Mission-Aransas Reserve, TX","vars":["chlorophyll_concentration","conductivity","depth","dissolved_oxygen","latitude","longitude","o2_saturation","salinity"]},{"id":"gbhm6","lat":30.418,"lon":-88.405,"title":"NDBC Station GBHM6 - Bayou Heron, Grand Bay Reserve, MS","vars":["chlorophyll_concentration","conductivity","depth","dissolved_oxygen","latitude","longitude","o2_saturation","salinity"]},{"id":"cwqt2","lat":28.132,"lon":-97.034,"title":"NDBC Station CWQT2 - Copano Bay East, Mission-Aransas Reserve, TX","vars":["chlorophyll_concentration","conductivity","depth","dissolved_oxygen","latitude","longitude","o2_saturation","salinity"]},{"id":"42095","lat":24.407,"lon":-81.968,"title":"NDBC Station 42095 - Satan Shoal, FL (244)","vars":["air_pressure","air_temperature","average_wpd","depth","dewpt_temperature","dominant_wpd","frequency","gust"],"current":{"wvht":1.2,"dpd":8.0,"atmp":16.4,"wtmp":24.3}},{"id":"42079","lat":24.535,"lon":-81.242,"title":"NDBC Station 42079 - Bahia Honda Key, FL (242)","vars":["air_pressure","air_temperature","average_wpd","depth","dewpt_temperature","dominant_wpd","gust","latitude"]},{"id":"42031","lat":30.09,"lon":-88.212,"title":"NDBC Station 42031 - West End CP, AL","vars":["air_pressure","air_temperature","average_wpd","chlorophyll_concentration","conductivity","depth","dewpt_temperature","dissolved_oxygen"],"current":{"wspd":2.0,"atmp":22.5}},{"id":"thrf1","lat":25.203,"lon":-80.372,"title":"NDBC Station THRF1 - Thursday Point, FL","vars":["air_pressure","air_temperature","average_wpd","chlorophyll_concentration","conductivity","depth","dewpt_temperature","dissolved_oxygen"]},{"id":"mnbf1","lat":25.239,"lon":-80.422,"title":"NDBC Station MNBF1 - Manatee Bay, FL","vars":["air_pressure","air_temperature","average_wpd","chlorophyll_concentration","conductivity","depth","dewpt_temperature","dissolved_oxygen"]},{"id":"mdkf1","lat":25.289,"lon":-80.396,"title":"NDBC Station MDKF1 - Middle Key, FL","vars":["air_pressure","air_temperature","average_wpd","chlorophyll_concentration","conductivity","depth","dewpt_temperature","dissolved_oxygen"]},{"id":"gctf1","lat":27.774,"lon":-82.517,"title":"NDBC Station GCTF1 - 8726524 - Gadsden Cut, Tampa Bay, FL","vars":["air_pressure","air_temperature","average_wpd","dewpt_temperature","dominant_wpd","gust","latitude","longitude"]},{"id":"fpst2","lat":28.936,"lon":-95.294,"title":"NDBC Station FPST2 - 8772471 - Freeport SPIP, TX","vars":["air_pressure","air_temperature","average_wpd","dewpt_temperature","dominant_wpd","gust","latitude","longitude"]},{"id":"42078","lat":24.5,"lon":-81.251,"title":"NDBC Station 42078 - Big Pine Key, FL (237)","vars":["air_pressure","air_temperature","average_wpd","depth","dewpt_temperature","dominant_wpd","gust","latitude"]},{"id":"41118","lat":28.609,"lon":-80.59,"title":"NDBC Station 41118 - Chester Shoal, FL (228)","vars":["air_pressure","air_temperature","average_wpd","depth","dewpt_temperature","dominant_wpd","gust","latitude"]},{"id":"bzst2","lat":26.067,"lon":-97.155,"title":"NDBC Station BZST2 - 8779749 - SPI Brazos Santiago, TX ","vars":["air_pressure","air_temperature","average_wpd","dewpt_temperature","dominant_wpd","gust","latitude","longitude"]},{"id":"41116","lat":28.523,"lon":-80.188,"title":"NDBC Station 41116 - Oculina Bank North, FL (227)","vars":["air_pressure","air_temperature","average_wpd","depth","dewpt_temperature","dominant_wpd","gust","latitude"]},{"id":"rcyf1","lat":29.8,"lon":-81.55,"title":"NDBC Station RCYF1 - 8720625 - Racy Point, St. Johns River, FL","vars":["air_pressure","air_temperature","average_wpd","dewpt_temperature","dominant_wpd","gust","latitude","longitude"]},{"id":"jxuf1","lat":30.354,"lon":-81.612,"title":"NDBC Station JXUF1 - 8720245 - Jacksonville University, FL","vars":["air_pressure","air_temperature","average_wpd","dewpt_temperature","dominant_wpd","gust","latitude","longitude"]},{"id":"grbl1","lat":29.101,"lon":-89.978,"title":"NDBC Station GRBL1 - Grand Isle Blocks, LA / CSI09","vars":["air_pressure","air_temperature","average_wpd","dewpt_temperature","dominant_wpd","gust","latitude","longitude"]},{"id":"einl1","lat":29.373,"lon":-91.384,"title":"NDBC Station EINL1 - 8764314 - North of Eugene Island, LA","vars":["air_pressure","air_temperature","average_wpd","dewpt_temperature","dominant_wpd","gust","latitude","longitude"]},{"id":"tbyf1","lat":25.155,"lon":-80.722,"title":"NDBC Station TBYF1 - Terrapin Bay, FL","vars":["air_pressure","air_temperature","average_wpd","chlorophyll_concentration","conductivity","depth","dewpt_temperature","dissolved_oxygen"]},{"id":"sref1","lat":25.352,"lon":-81.1,"title":"NDBC Station SREF1 - Shark River, FL","vars":["air_pressure","air_temperature","average_wpd","chlorophyll_concentration","conductivity","depth","dewpt_temperature","dissolved_oxygen"]},{"id":"nrrf1","lat":25.338,"lon":-80.911,"title":"NDBC Station NRRF1 - North River, FL","vars":["air_pressure","air_temperature","average_wpd","chlorophyll_concentration","conductivity","depth","dewpt_temperature","dissolved_oxygen"]},{"id":"href1","lat":25.424,"lon":-81.06,"title":"NDBC Station HREF1 - Harney River, FL","vars":["air_pressure","air_temperature","average_wpd","chlorophyll_concentration","conductivity","depth","dewpt_temperature","dissolved_oxygen"]},{"id":"bskf1","lat":25.266,"lon":-81.162,"title":"NDBC Station BSKF1 - Big Sable Creek, FL","vars":["air_pressure","air_temperature","average_wpd","chlorophyll_concentration","conductivity","depth","dewpt_temperature","dissolved_oxygen"]},{"id":"bkyf1","lat":25.119,"lon":-80.834,"title":"NDBC Station BKYF1 - Buoy Key, FL","vars":["air_pressure","air_temperature","average_wpd","chlorophyll_concentration","conductivity","depth","dewpt_temperature","dissolved_oxygen"]},{"id":"42089","lat":19.699,"lon":-80.061,"title":"NDBC Station 42089 - Little Cayman Research Center, CYM","vars":["air_pressure","air_temperature","average_wpd","dewpt_temperature","dominant_wpd","gust","latitude","longitude"]},{"id":"gkyf1","lat":24.627,"lon":-82.872,"title":"NDBC Station GKYF1 - Garden Key, FL","vars":["air_pressure","air_temperature","average_wpd","chlorophyll_concentration","conductivity","depth","dewpt_temperature","dissolved_oxygen"]},{"id":"bkbf1","lat":30.192,"lon":-81.692,"title":"NDBC Station BKBF1 - 8720357 -  I-295 Buckman Bridge, St Johns River, FL","vars":["air_pressure","air_temperature","average_wpd","dewpt_temperature","dominant_wpd","gust","latitude","longitude"]},{"id":"dmsf1","lat":30.387,"lon":-81.559,"title":"NDBC Station DMSF1 - 8720219 - Dames Point, FL","vars":["air_pressure","air_temperature","average_wpd","dewpt_temperature","dominant_wpd","gust","latitude","longitude"]},{"id":"ltjf1","lat":30.379,"lon":-81.446,"title":"NDBC Station LTJF1 - 8720228 - Little Jetties, St. Johns River, FL","vars":["air_pressure","air_temperature","average_wpd","dewpt_temperature","dominant_wpd","gust","latitude","longitude"]},{"id":"sgnt2","lat":28.771,"lon":-95.617,"title":"NDBC Station SGNT2 - 8772985 - Sargent, TX","vars":["air_pressure","air_temperature","average_wpd","dewpt_temperature","dominant_wpd","gust","latitude","longitude"]},{"id":"rlit2","lat":26.262,"lon":-97.285,"title":"NDBC Station RLIT2 - 8779280 - Realitos Peninsula, TX","vars":["air_pressure","air_temperature","average_wpd","dewpt_temperature","dominant_wpd","gust","latitude","longitude"]},{"id":"pmnt2","lat":26.559,"lon":-97.424,"title":"NDBC Station PMNT2 - 8778490 - Port Mansfield, TX","vars":["air_pressure","air_temperature","average_wpd","dewpt_temperature","dominant_wpd","gust","latitude","longitude"]},{"id":"nuet2","lat":27.832,"lon":-97.486,"title":"NDBC Station NUET2 - 8775244 - Nueces Bay, TX","vars":["air_pressure","air_temperature","average_wpd","dewpt_temperature","dominant_wpd","gust","latitude","longitude"]},{"id":"lybt2","lat":29.765,"lon":-95.078,"title":"NDBC Station LYBT2 - 8770733 - Lynchburg Landing, TX","vars":["air_pressure","air_temperature","average_wpd","dewpt_temperature","dominant_wpd","gust","latitude","longitude"]},{"id":"nfdf1","lat":30.4,"lon":-81.627,"title":"NDBC Station NFDF1 - 8720215 - Navy Fuel Depot, St Johns River, FL","vars":["air_pressure","air_temperature","average_wpd","dewpt_temperature","dominant_wpd","gust","latitude","longitude"]},{"id":"blif1","lat":30.393,"lon":-81.523,"title":"NDBC Station BLIF1 - 8720233 - Blount Island Command, St Johns River, FL","vars":["air_pressure","air_temperature","average_wpd","dewpt_temperature","dominant_wpd","gust","latitude","longitude"]},{"id":"ptoa1","lat":30.671,"lon":-88.031,"title":"NDBC Station PTOA1 - 8737005 - Pinto Island, AL","vars":["air_pressure","air_temperature","average_wpd","dewpt_temperature","dominant_wpd","gust","latitude","longitude"]},{"id":"mbpa1","lat":30.527,"lon":-88.086,"title":"NDBC Station MBPA1 - 8736163 - Middle Bay Port, Mobile Bay, AL","vars":["air_pressure","air_temperature","average_wpd","dewpt_temperature","dominant_wpd","gust","latitude","longitude"]},{"id":"sipf1","lat":27.862,"lon":-80.445,"title":"NDBC Station SIPF1 - Sebastian Inlet State Park North Jetty, FL","vars":["air_pressure","air_temperature","average_wpd","chlorophyll_concentration","conductivity","depth","dewpt_temperature","dissolved_oxygen"]},{"id":"wbya1","lat":30.417,"lon":-87.825,"title":"NDBC Station WBYA1 - Weeks Bay, Mobile Bay, AL ","vars":["air_pressure","air_temperature","average_wpd","dewpt_temperature","dominant_wpd","gust","latitude","longitude"]},{"id":"carl1","lat":29.933,"lon":-90.135,"title":"NDBC Station CARL1 - 8761955 - Carrollton, LA ","vars":["air_pressure","air_temperature","average_wpd","dewpt_temperature","dominant_wpd","gust","latitude","longitude"]},{"id":"bktl1","lat":30.19,"lon":-93.301,"title":"NDBC Station BKTL1 - 8767961 - Lake Charles Bulk Terminal, LA","vars":["air_pressure","air_temperature","average_wpd","dewpt_temperature","dominant_wpd","gust","latitude","longitude"]},{"id":"mcyf1","lat":27.913,"lon":-82.425,"title":"NDBC Station MCYF1 - 8726667 - McKay Bay Entrance, FL","vars":["air_pressure","air_temperature","average_wpd","dewpt_temperature","dominant_wpd","gust","latitude","longitude"]},{"id":"wwef1","lat":25.232,"lon":-80.938,"title":"NDBC Station WWEF1 - Whitewater Bay-East, FL","vars":["air_pressure","air_temperature","average_wpd","chlorophyll_concentration","conductivity","depth","dewpt_temperature","dissolved_oxygen"]},{"id":"lrif1","lat":25.284,"lon":-80.894,"title":"NDBC Station LRIF1 - Lane River, FL ","vars":["air_pressure","air_temperature","average_wpd","chlorophyll_concentration","conductivity","depth","dewpt_temperature","dissolved_oxygen"]},{"id":"cwaf1","lat":25.297,"lon":-81.013,"title":"NDBC Station CWAF1 - Clear Water Pass, FL ","vars":["air_pressure","air_temperature","average_wpd","chlorophyll_concentration","conductivity","depth","dewpt_temperature","dissolved_oxygen"]},{"id":"txpt2","lat":29.689,"lon":-93.842,"title":"NDBC Station TXPT2 - 8770822 - Texas Point, Sabine Pass, TX ","vars":["air_pressure","air_temperature","average_wpd","dewpt_temperature","dominant_wpd","gust","latitude","longitude"]},{"id":"ppta1","lat":30.279,"lon":-87.556,"title":"NDBC Station PPTA1 - Perdido Pass, AL","vars":["air_pressure","air_temperature","average_wpd","chlorophyll_concentration","conductivity","depth","dewpt_temperature","dissolved_oxygen"]},{"id":"taqt2","lat":27.815,"lon":-97.389,"title":"NDBC Station TAQT2 - 8775296 - USS Lexington, TX","vars":["air_pressure","air_temperature","average_wpd","dewpt_temperature","dominant_wpd","gust","latitude","longitude"]},{"id":"pcgt2","lat":26.072,"lon":-97.167,"title":"NDBC Station PCGT2 - 8779748 - South Padre Island CGS, TX ","vars":["air_pressure","air_temperature","average_wpd","dewpt_temperature","dominant_wpd","gust","latitude","longitude"]},{"id":"lopl1","lat":28.885,"lon":-90.025,"title":"NDBC Station LOPL1 - Louisiana Offshore Oil Port, LA","vars":["air_pressure","air_temperature","average_wpd","dewpt_temperature","dominant_wpd","gust","latitude","longitude"]},{"id":"cgcl1","lat":28.791,"lon":-89.056,"title":"NDBC Station CGCL1 - Cognac","vars":["air_pressure","air_temperature","average_wpd","dewpt_temperature","dominant_wpd","gust","latitude","longitude"]},{"id":"lciy2","lat":19.699,"lon":-80.061,"title":"NDBC Station LCIY2 - Little Cayman Research Centre, Cayman Islands","vars":["air_pressure","air_temperature","average_wpd","chlorophyll_concentration","conductivity","depth","dewpt_temperature","dissolved_oxygen"]},{"id":"pvgf1","lat":26.093,"lon":-80.109,"title":"NDBC Station PVGF1 - Port Everglades Channel, FL","vars":["air_pressure","air_temperature","average_wpd","chlorophyll_concentration","conductivity","depth","dewpt_temperature","dissolved_oxygen"]},{"id":"wplf1","lat":25.71,"lon":-81.249,"title":"NDBC Station WPLF1 - Watson Place, FL","vars":["air_pressure","air_temperature","average_wpd","chlorophyll_concentration","conductivity","depth","dewpt_temperature","dissolved_oxygen"]},{"id":"wiwf1","lat":25.587,"lon":-81.044,"title":"NDBC Station WIWF1 - Willy Willy, FL","vars":["air_pressure","air_temperature","average_wpd","chlorophyll_concentration","conductivity","depth","dewpt_temperature","dissolved_oxygen"]},{"id":"trrf1","lat":25.217,"lon":-80.65,"title":"NDBC Station TRRF1 - Taylor River, FL","vars":["air_pressure","air_temperature","average_wpd","chlorophyll_concentration","conductivity","depth","dewpt_temperature","dissolved_oxygen"]},{"id":"tpef1","lat":25.41,"lon":-80.964,"title":"NDBC Station TPEF1 - Tarpon Bay East, FL","vars":["air_pressure","air_temperature","average_wpd","chlorophyll_concentration","conductivity","depth","dewpt_temperature","dissolved_oxygen"]},{"id":"tcvf1","lat":25.213,"lon":-80.533,"title":"NDBC Station TCVF1 - Trout Cove, FL","vars":["air_pressure","air_temperature","average_wpd","chlorophyll_concentration","conductivity","depth","dewpt_temperature","dissolved_oxygen"]},{"id":"pkyf1","lat":24.918,"lon":-80.747,"title":"NDBC Station PKYF1 - Peterson Key, FL","vars":["air_pressure","air_temperature","average_wpd","chlorophyll_concentration","conductivity","depth","dewpt_temperature","dissolved_oxygen"]},{"id":"mukf1","lat":25.106,"lon":-80.942,"title":"NDBC Station MUKF1 - Murray Key, FL","vars":["air_pressure","air_temperature","average_wpd","chlorophyll_concentration","conductivity","depth","dewpt_temperature","dissolved_oxygen"]},{"id":"lsnf1","lat":25.235,"lon":-80.457,"title":"NDBC Station LSNF1 - Long Sound, FL","vars":["air_pressure","air_temperature","average_wpd","chlorophyll_concentration","conductivity","depth","dewpt_temperature","dissolved_oxygen"]},{"id":"lrkf1","lat":24.982,"lon":-80.826,"title":"NDBC Station LRKF1 - Little Rabbit Key, FL","vars":["air_pressure","air_temperature","average_wpd","chlorophyll_concentration","conductivity","depth","dewpt_temperature","dissolved_oxygen"]},{"id":"lmrf1","lat":25.556,"lon":-81.169,"title":"NDBC Station LMRF1 - Lostmans River, FL","vars":["air_pressure","air_temperature","average_wpd","chlorophyll_concentration","conductivity","depth","dewpt_temperature","dissolved_oxygen"]},{"id":"lmdf1","lat":25.176,"lon":-80.633,"title":"NDBC Station LMDF1 - Little Madeira, FL","vars":["air_pressure","air_temperature","average_wpd","chlorophyll_concentration","conductivity","depth","dewpt_temperature","dissolved_oxygen"]},{"id":"lbsf1","lat":25.214,"lon":-80.432,"title":"NDBC Station LBSF1 - Little Blackwater, FL","vars":["air_pressure","air_temperature","average_wpd","chlorophyll_concentration","conductivity","depth","dewpt_temperature","dissolved_oxygen"]},{"id":"lbrf1","lat":25.484,"lon":-81.111,"title":"NDBC Station LBRF1 - Broad River Lower, FL","vars":["air_pressure","air_temperature","average_wpd","dewpt_temperature","dominant_wpd","gust","latitude","longitude"]},{"id":"jkyf1","lat":25.053,"lon":-80.904,"title":"NDBC Station JKYF1 - Johnson Key, FL","vars":["air_pressure","air_temperature","average_wpd","chlorophyll_concentration","conductivity","depth","dewpt_temperature","dissolved_oxygen"]},{"id":"gbtf1","lat":25.167,"lon":-80.801,"title":"NDBC Station GBTF1 - Garfield Bight, FL","vars":["air_pressure","air_temperature","average_wpd","chlorophyll_concentration","conductivity","depth","dewpt_temperature","dissolved_oxygen"]},{"id":"gbif1","lat":25.378,"lon":-81.029,"title":"NDBC Station GBIF1 - Gunboat Island, FL","vars":["air_pressure","air_temperature","average_wpd","chlorophyll_concentration","conductivity","depth","dewpt_temperature","dissolved_oxygen"]},{"id":"dkkf1","lat":25.18,"lon":-80.49,"title":"NDBC Station DKKF1 - Duck Key, FL","vars":["air_pressure","air_temperature","average_wpd","chlorophyll_concentration","conductivity","depth","dewpt_temperature","dissolved_oxygen"]},{"id":"cnbf1","lat":25.702,"lon":-81.186,"title":"NDBC Station CNBF1 - Cannon Bay, FL","vars":["air_pressure","air_temperature","average_wpd","chlorophyll_concentration","conductivity","depth","dewpt_temperature","dissolved_oxygen"]},{"id":"canf1","lat":25.422,"lon":-80.942,"title":"NDBC Station CANF1 - Cane Patch, FL","vars":["air_pressure","air_temperature","average_wpd","chlorophyll_concentration","conductivity","depth","dewpt_temperature","dissolved_oxygen"]},{"id":"bwsf1","lat":25.178,"lon":-80.438,"title":"NDBC Station BWSF1 - Blackwater Sound, FL","vars":["air_pressure","air_temperature","average_wpd","chlorophyll_concentration","conductivity","depth","dewpt_temperature","dissolved_oxygen"]},{"id":"bobf1","lat":25.027,"lon":-80.681,"title":"NDBC Station BOBF1 - Bob Allen, FL","vars":["air_pressure","air_temperature","average_wpd","chlorophyll_concentration","conductivity","depth","dewpt_temperature","dissolved_oxygen"]},{"id":"bnkf1","lat":25.087,"lon":-80.519,"title":"NDBC Station BNKF1 - Butternut Key, FL","vars":["air_pressure","air_temperature","average_wpd","chlorophyll_concentration","conductivity","depth","dewpt_temperature","dissolved_oxygen"]},{"id":"bdvf1","lat":25.478,"lon":-80.989,"title":"NDBC Station BDVF1 - Broad River, FL","vars":["air_pressure","air_temperature","average_wpd","chlorophyll_concentration","conductivity","depth","dewpt_temperature","dissolved_oxygen"]},{"id":"hcef1","lat":25.254,"lon":-80.444,"title":"NDBC Station HCEF1 - Highway Creek, FL","vars":["air_pressure","air_temperature","average_wpd","chlorophyll_concentration","conductivity","depth","dewpt_temperature","dissolved_oxygen"]},{"id":"lcll1","lat":30.224,"lon":-93.222,"title":"NDBC Station LCLL1 - 8767816 - Lake Charles, LA","vars":["air_pressure","air_temperature","average_wpd","dewpt_temperature","dominant_wpd","gust","latitude","longitude"]},{"id":"bphf1","lat":27.611,"lon":-82.571,"title":"NDBC Station BPHF1 - BISHOP HARBOR, FL","vars":["chlorophyll_concentration","conductivity","depth","dissolved_oxygen","latitude","longitude","o2_saturation","salinity"]},{"id":"sblf1","lat":27.923,"lon":-82.445,"title":"NDBC Station SBLF1 - 8726673 - Seabulk, Tampa, FL","vars":["air_pressure","air_temperature","average_wpd","dewpt_temperature","dominant_wpd","gust","latitude","longitude"]},{"id":"gwpm6","lat":30.348,"lon":-89.087,"title":"NDBC Station GWPM6 - 8745651 - West Pier, Gulfport, MS","vars":["air_pressure","air_temperature","average_wpd","dewpt_temperature","dominant_wpd","gust","latitude","longitude"]},{"id":"gpom6","lat":30.23,"lon":-88.982,"title":"NDBC Station GPOM6 - 8744707 - Gulfport Outer Range, MS","vars":["air_pressure","air_temperature","average_wpd","dewpt_temperature","dominant_wpd","gust","latitude","longitude"]},{"id":"dkcm6","lat":30.355,"lon":-88.567,"title":"NDBC Station DKCM6 - 8741501 - Dock C, Port of Pascagoula, MS","vars":["air_pressure","air_temperature","average_wpd","dewpt_temperature","dominant_wpd","gust","latitude","longitude"]},{"id":"ccuf1","lat":27.663,"lon":-82.618,"title":"NDBC Station CCUF1 - 8726413 - C-Cut, St. Petersburg, FL","vars":["air_pressure","air_temperature","average_wpd","dewpt_temperature","dominant_wpd","gust","latitude","longitude"]},{"id":"frkf1","lat":27.591,"lon":-82.552,"title":"NDBC Station FRKF1 - Frog Creek, FL","vars":["chlorophyll_concentration","conductivity","depth","dissolved_oxygen","latitude","longitude","o2_saturation","salinity"]},{"id":"camf1","lat":27.765,"lon":-82.649,"title":"NDBC Station CAMF1 - Campbell Park, FL","vars":["air_pressure","air_temperature","average_wpd","chlorophyll_concentration","conductivity","depth","dewpt_temperature","dissolved_oxygen"]},{"id":"ulam6","lat":30.348,"lon":-88.505,"title":"NDBC Station ULAM6 - 8741041 - Dock E. Port of Pascagoula, MS","vars":["air_pressure","air_temperature","average_wpd","dewpt_temperature","dominant_wpd","gust","latitude","longitude"]},{"id":"ptfl1","lat":29.114,"lon":-90.199,"title":"NDBC Station PTFL1 - 8762075 - Port Fourchon, LA","vars":["air_pressure","air_temperature","average_wpd","dewpt_temperature","dominant_wpd","gust","latitude","longitude"]},{"id":"pnlm6","lat":30.368,"lon":-88.563,"title":"NDBC Station PNLM6 - 8741533 - Pascagoula NOAA Lab, MS","vars":["air_pressure","air_temperature","average_wpd","dewpt_temperature","dominant_wpd","gust","latitude","longitude"]},{"id":"obla1","lat":30.705,"lon":-88.04,"title":"NDBC Station OBLA1 - 8737048 - Mobile State Docks, AL","vars":["air_pressure","air_temperature","average_wpd","dewpt_temperature","dominant_wpd","gust","latitude","longitude"]},{"id":"sdrt2","lat":28.407,"lon":-96.712,"title":"NDBC Station SDRT2 - 8773037 - Seadrift, TX","vars":["air_pressure","air_temperature","average_wpd","dewpt_temperature","dominant_wpd","gust","latitude","longitude"]},{"id":"rtat2","lat":27.84,"lon":-97.072,"title":"NDBC Station RTAT2 - 8775237 - Port Aransas, TX","vars":["air_pressure","air_temperature","average_wpd","dewpt_temperature","dominant_wpd","gust","latitude","longitude"]},{"id":"rlot2","lat":29.515,"lon":-94.513,"title":"NDBC Station RLOT2 - 8770971 - Rollover Pass, TX","vars":["air_pressure","air_temperature","average_wpd","dewpt_temperature","dominant_wpd","gust","latitude","longitude"]},{"id":"nglt2","lat":27.822,"lon":-97.203,"title":"NDBC Station NGLT2 - 8775283 - Port Ingleside, TX","vars":["air_pressure","air_temperature","average_wpd","dewpt_temperature","dominant_wpd","gust","latitude","longitude"]},{"id":"cllt2","lat":29.563,"lon":-95.067,"title":"NDBC Station CLLT2 - 8770933 - Clear Lake, TX","vars":["air_pressure","air_temperature","average_wpd","dewpt_temperature","dominant_wpd","gust","latitude","longitude"]},{"id":"wkqa1","lat":30.417,"lon":-87.823,"title":"NDBC Station WKQA1 - Fish River, Weeks Bay Reserve, AL","vars":["chlorophyll_concentration","conductivity","depth","dissolved_oxygen","latitude","longitude","o2_saturation","salinity"]},{"id":"saqg1","lat":31.418,"lon":-81.296,"title":"NDBC Station SAQG1 - Lower Duplin, Sapelo Island Reserve, GA","vars":["chlorophyll_concentration","conductivity","depth","dissolved_oxygen","latitude","longitude","o2_saturation","salinity"]},{"id":"rkqf1","lat":26.027,"lon":-81.734,"title":"NDBC Station RKQF1 - Lower Henderson Creek, Rookery Bay Reserve, FL","vars":["chlorophyll_concentration","conductivity","depth","dissolved_oxygen","latitude","longitude","o2_saturation","salinity"]},{"id":"maqt2","lat":27.98,"lon":-97.029,"title":"NDBC Station MAQT2 - Aransas Bay, Mission-Aransas Reserve, TX","vars":["chlorophyll_concentration","conductivity","depth","dissolved_oxygen","latitude","longitude","o2_saturation","salinity"]},{"id":"gtqf1","lat":29.667,"lon":-81.257,"title":"NDBC Station GTQF1 - Pellicer Creek, Guan Tolomato Matanzas Reserve, FL","vars":["chlorophyll_concentration","conductivity","depth","dissolved_oxygen","latitude","longitude","o2_saturation","salinity"]},{"id":"gdqm6","lat":30.357,"lon":-88.463,"title":"NDBC Station GDQM6 - Bangs Lake, Grand Bay Reserve, MS","vars":["chlorophyll_concentration","conductivity","depth","dissolved_oxygen","latitude","longitude","o2_saturation","salinity"]},{"id":"apqf1","lat":29.786,"lon":-84.875,"title":"NDBC Station APQF1 - East Bay Bottom, Apalachicola Reserve, FL","vars":["chlorophyll_concentration","conductivity","depth","dissolved_oxygen","latitude","longitude","o2_saturation","salinity"]},{"id":"42051","lat":29.635,"lon":-93.642,"title":"NDBC Station 42051 - TABS R","vars":["chlorophyll_concentration","conductivity","depth","dissolved_oxygen","latitude","longitude","o2_saturation","salinity"]},{"id":"42050","lat":28.842,"lon":-94.242,"title":"NDBC Station 42050 - TABS F","vars":["chlorophyll_concentration","conductivity","depth","dissolved_oxygen","latitude","longitude","o2_saturation","salinity"]},{"id":"42049","lat":28.351,"lon":-96.006,"title":"NDBC Station 42049 - TABS W","vars":["chlorophyll_concentration","conductivity","depth","dissolved_oxygen","latitude","longitude","o2_saturation","salinity"]},{"id":"42048","lat":27.939,"lon":-96.843,"title":"NDBC Station 42048 - TABS D","vars":["chlorophyll_concentration","conductivity","depth","dissolved_oxygen","latitude","longitude","o2_saturation","salinity"]},{"id":"mhpa1","lat":30.667,"lon":-87.936,"title":"NDBC Station MHPA1 - Meaher Park, AL","vars":["air_pressure","air_temperature","average_wpd","chlorophyll_concentration","conductivity","depth","dewpt_temperature","dissolved_oxygen"]},{"id":"dpha1","lat":30.251,"lon":-88.078,"title":"NDBC Station DPHA1 - Dauphin Island Sea Lab, AL","vars":["air_pressure","air_temperature","average_wpd","chlorophyll_concentration","conductivity","depth","dewpt_temperature","dissolved_oxygen"]},{"id":"pmaf1","lat":27.638,"lon":-82.562,"title":"NDBC Station PMAF1 - 8726384 - Port Manatee, FL","vars":["air_pressure","air_temperature","average_wpd","dewpt_temperature","dominant_wpd","gust","latitude","longitude"]},{"id":"wavm6","lat":30.282,"lon":-89.367,"title":"NDBC Station WAVM6 - 8747766 - Waveland, MS","vars":["air_pressure","air_temperature","average_wpd","dewpt_temperature","dominant_wpd","gust","latitude","longitude"]},{"id":"labl1","lat":30.05,"lon":-90.368,"title":"NDBC Station LABL1 - 8762372 - East Bank 1, Bayou LaBranch, LA","vars":["air_pressure","air_temperature","average_wpd","dewpt_temperature","dominant_wpd","gust","latitude","longitude"]},{"id":"gpst2","lat":29.285,"lon":-94.788,"title":"NDBC Station GPST2 - 8771510 - Galveston Pleasure Pier, TX","vars":["air_pressure","air_temperature","average_wpd","dewpt_temperature","dominant_wpd","gust","latitude","longitude"]},{"id":"fptt2","lat":28.948,"lon":-95.308,"title":"NDBC Station FPTT2 - 8772440 - Freeport, TX","vars":["air_pressure","air_temperature","average_wpd","dewpt_temperature","dominant_wpd","gust","latitude","longitude"]},{"id":"secg1","lat":30.8,"lon":-80.316,"title":"NDBC Station SECG1 - U.S. Navy Tower R4 GA","vars":["air_pressure","air_temperature","average_wpd","dewpt_temperature","dominant_wpd","gust","latitude","longitude"]},{"id":"42047","lat":27.897,"lon":-93.597,"title":"NDBC Station 42047 - GERG Flower Gardens Buoy V","vars":["air_pressure","air_temperature","average_wpd","chlorophyll_concentration","conductivity","depth","dewpt_temperature","dissolved_oxygen"]},{"id":"mlrf1","lat":25.012,"lon":-80.376,"title":"NDBC Station MLRF1 - Molasses Reef, FL","vars":["air_pressure","air_temperature","average_wpd","chlorophyll_concentration","conductivity","depth","dewpt_temperature","dissolved_oxygen"]},{"id":"ktnf1","lat":29.819,"lon":-83.593,"title":"NDBC Station KTNF1 - Keaton Beach, FL","vars":["air_pressure","air_temperature","average_wpd","dewpt_temperature","dominant_wpd","gust","gust_dir","gust_spd"]},{"id":"fwyf1","lat":25.591,"lon":-80.097,"title":"NDBC Station FWYF1 - Fowey Rock, FL","vars":["air_pressure","air_temperature","average_wpd","chlorophyll_concentration","conductivity","depth","dewpt_temperature","dissolved_oxygen"]},{"id":"cdrf1","lat":29.136,"lon":-83.029,"title":"NDBC Station CDRF1 - Cedar Key, FL","vars":["air_pressure","air_temperature","average_wpd","dewpt_temperature","dominant_wpd","gust","gust_dir","gust_spd"]},{"id":"ptat2","lat":27.826,"lon":-97.051,"title":"NDBC Station PTAT2 - Port Aransas, TX","vars":["air_pressure","air_temperature","average_wpd","dewpt_temperature","dominant_wpd","gust","gust_dir","gust_spd"]},{"id":"wycm6","lat":30.326,"lon":-89.326,"title":"NDBC Station WYCM6 - 8747437 - Bay Waveland Yacht Club, MS","vars":["air_pressure","air_temperature","average_wpd","dewpt_temperature","dominant_wpd","gust","latitude","longitude"]},{"id":"wrbf1","lat":25.072,"lon":-80.735,"title":"NDBC Station WRBF1 - Whipray Basin, FL","vars":["air_pressure","air_temperature","average_wpd","chlorophyll_concentration","conductivity","depth","dewpt_temperature","dissolved_oxygen"]},{"id":"wkxa1","lat":30.421,"lon":-87.828,"title":"NDBC Station WKXA1 - Safe Harbor Met Station, Weeks Bay Reserve, AL","vars":["air_pressure","air_temperature","average_wpd","dewpt_temperature","dominant_wpd","gust","latitude","longitude"]},{"id":"wdel1","lat":28.662,"lon":-89.551,"title":"NDBC Station WDEL1 - Shell West Delta 143","vars":["air_pressure","air_temperature","average_wpd","dewpt_temperature","dominant_wpd","gust","latitude","longitude"]},{"id":"vtbt2","lat":27.841,"lon":-97.52,"title":"NDBC Station VTBT2 - 8775222 - Viola Turning Basin, TX","vars":["air_pressure","air_temperature","average_wpd","dewpt_temperature","dominant_wpd","gust","latitude","longitude"]},{"id":"venf1","lat":27.072,"lon":-82.453,"title":"NDBC Station VENF1 - Venice, FL","vars":["air_pressure","air_temperature","average_wpd","dewpt_temperature","dominant_wpd","gust","gust_dir","gust_spd"]},{"id":"vcat2","lat":28.64,"lon":-96.609,"title":"NDBC Station VCAT2 - 8773259 - Port Lavaca, TX ","vars":["air_pressure","air_temperature","average_wpd","dewpt_temperature","dominant_wpd","gust","latitude","longitude"]},{"id":"vcaf1","lat":24.711,"lon":-81.107,"title":"NDBC Station VCAF1 - 8723970 - Vaca Key, FL","vars":["air_pressure","air_temperature","average_wpd","dewpt_temperature","dominant_wpd","gust","latitude","longitude"]},{"id":"vakf1","lat":25.731,"lon":-80.162,"title":"NDBC Station VAKF1 - 8723214 - Virginia Key, FL","vars":["air_pressure","air_temperature","average_wpd","dewpt_temperature","dominant_wpd","gust","latitude","longitude"]},{"id":"tshf1","lat":27.929,"lon":-82.426,"title":"NDBC Station TSHF1 - 8726679  - East Bay Causeway, FL","vars":["air_pressure","air_temperature","average_wpd","dewpt_temperature","dominant_wpd","gust","latitude","longitude"]},{"id":"trdf1","lat":28.416,"lon":-80.593,"title":"NDBC Station TRDF1 - 8721604 - Trident Pier, FL","vars":["air_pressure","air_temperature","average_wpd","dewpt_temperature","dominant_wpd","gust","latitude","longitude"]},{"id":"trbl1","lat":29.187,"lon":-90.608,"title":"NDBC Station TRBL1 - Terrebonne Bay, LA","vars":["air_pressure","air_temperature","average_wpd","dewpt_temperature","dominant_wpd","gust","latitude","longitude"]},{"id":"tpaf1","lat":27.933,"lon":-82.433,"title":"NDBC Station TPAF1 - 8726694 - TPA Cruise Terminal 2, Tampa, FL","vars":["air_pressure","air_temperature","average_wpd","dewpt_temperature","dominant_wpd","gust","latitude","longitude"]},{"id":"tesl1","lat":29.668,"lon":-91.237,"title":"NDBC Station TESL1 - 8764044 - Tesoro Marine Terminal, Berwick, Atchafalaya Rive","vars":["air_pressure","air_temperature","average_wpd","dewpt_temperature","dominant_wpd","gust","latitude","longitude"]},{"id":"tarf1","lat":28.156,"lon":-82.758,"title":"NDBC Station TARF1 - TAS - Tarpon Springs, FL","vars":["air_pressure","air_temperature","average_wpd","dewpt_temperature","dominant_wpd","gust","latitude","longitude"]},{"id":"taml1","lat":29.19,"lon":-90.665,"title":"NDBC Station TAML1 - Tambour Bay, LA","vars":["air_pressure","air_temperature","average_wpd","dewpt_temperature","dominant_wpd","gust","latitude","longitude"]},{"id":"srst2","lat":29.683,"lon":-94.033,"title":"NDBC Station SRST2 - Sabine Pass, TX","vars":["air_pressure","air_temperature","average_wpd","dewpt_temperature","dominant_wpd","gust","gust_dir","gust_spd"]},{"id":"spll1","lat":28.867,"lon":-90.483,"title":"NDBC Station SPLL1 - South Timbalier Block 52, LA / CSI06","vars":["air_pressure","air_temperature","average_wpd","dewpt_temperature","dominant_wpd","gust","latitude","longitude"]},{"id":"spag1","lat":31.375,"lon":-80.567,"title":"NDBC Station SPAG1 - U.S. Navy Tower R2 GA","vars":["air_pressure","air_temperature","average_wpd","dewpt_temperature","dominant_wpd","gust","latitude","longitude"]},{"id":"smkf1","lat":24.628,"lon":-81.109,"title":"NDBC Station SMKF1 - Sombrero Key, FL","vars":["air_pressure","air_temperature","average_wpd","chlorophyll_concentration","conductivity","depth","dewpt_temperature","dissolved_oxygen"]},{"id":"slpl1","lat":29.517,"lon":-91.55,"title":"NDBC Station SLPL1 - Salt Point, LA  / CSI14","vars":["air_pressure","air_temperature","average_wpd","dewpt_temperature","dominant_wpd","gust","latitude","longitude"]},{"id":"skmg1","lat":31.534,"lon":-80.236,"title":"NDBC Station SKMG1 - U.S. Navy Tower M2R6 GA","vars":["air_pressure","air_temperature","average_wpd","dewpt_temperature","dominant_wpd","gust","latitude","longitude"]},{"id":"skcf1","lat":27.921,"lon":-82.445,"title":"NDBC Station SKCF1 - 8726671 - Sparkman Channel Entrance, FL","vars":["air_pressure","air_temperature","average_wpd","dewpt_temperature","dominant_wpd","gust","latitude","longitude"]},{"id":"sipm6","lat":30.267,"lon":-89.017,"title":"NDBC Station SIPM6 - Ship Island Pass, MS / CSI13","vars":["air_pressure","air_temperature","average_wpd","dewpt_temperature","dominant_wpd","gust","latitude","longitude"]},{"id":"shpf1","lat":30.058,"lon":-84.291,"title":"NDBC Station SHPF1 - SHP - Shell Point, FL","vars":["air_pressure","air_temperature","average_wpd","dewpt_temperature","dominant_wpd","gust","latitude","longitude"]},{"id":"shbl1","lat":29.868,"lon":-89.673,"title":"NDBC Station SHBL1 - 8761305 - Shell Beach, LA","vars":["air_pressure","air_temperature","average_wpd","dewpt_temperature","dominant_wpd","gust","latitude","longitude"]},{"id":"sgof1","lat":29.408,"lon":-84.858,"title":"NDBC Station SGOF1 - Tyndall AFB Tower C (N4), FL","vars":["air_pressure","air_temperature","average_wpd","dewpt_temperature","dominant_wpd","gust","gust_dir","gust_spd"]},{"id":"sbpt2","lat":29.73,"lon":-93.87,"title":"NDBC Station SBPT2 - 8770570 - Sabine Pass North, TX","vars":["air_pressure","air_temperature","average_wpd","dewpt_temperature","dominant_wpd","gust","latitude","longitude"]},{"id":"saxg1","lat":31.418,"lon":-81.296,"title":"NDBC Station SAXG1 - Marsh Island, Sapelo Island Reserve, GA","vars":["air_pressure","air_temperature","average_wpd","dewpt_temperature","dominant_wpd","gust","latitude","longitude"]},{"id":"sauf1","lat":29.857,"lon":-81.264,"title":"NDBC Station SAUF1 - St. Augustine, FL","vars":["air_pressure","air_temperature","average_wpd","chlorophyll_concentration","conductivity","depth","dewpt_temperature","dissolved_oxygen"]},{"id":"sapf1","lat":27.761,"lon":-82.627,"title":"NDBC Station SAPF1 - 8726520 - St. Petersburg, Tampa Bay, FL","vars":["air_pressure","air_temperature","average_wpd","dewpt_temperature","dominant_wpd","gust","latitude","longitude"]},{"id":"sanf1","lat":24.456,"lon":-81.877,"title":"NDBC Station SANF1 - Sand Key, FL","vars":["air_pressure","air_temperature","average_wpd","chlorophyll_concentration","conductivity","depth","dewpt_temperature","dissolved_oxygen"]},{"id":"rsjt2","lat":26.801,"lon":-97.471,"title":"NDBC Station RSJT2 - 8777812 - Rincon del San Jose, TX","vars":["air_pressure","air_temperature","average_wpd","dewpt_temperature","dominant_wpd","gust","latitude","longitude"]},{"id":"rkxf1","lat":26.05,"lon":-81.701,"title":"NDBC Station RKXF1 - Upper Henderson Creek, Rookery Bay Reserve, FL","vars":["air_pressure","air_temperature","average_wpd","dewpt_temperature","dominant_wpd","gust","latitude","longitude"]},{"id":"rcpt2","lat":28.024,"lon":-97.048,"title":"NDBC Station RCPT2 - 8774770 - Rockport, TX","vars":["air_pressure","air_temperature","average_wpd","dewpt_temperature","dominant_wpd","gust","latitude","longitude"]},{"id":"rarm6","lat":30.343,"lon":-88.512,"title":"NDBC Station RARM6 - 8741094 - Range A Rear, Port of Pascagoula, MS","vars":["air_pressure","air_temperature","average_wpd","dewpt_temperature","dominant_wpd","gust","latitude","longitude"]},{"id":"ptrf1","lat":28.285,"lon":-82.733,"title":"NDBC Station PTRF1 - PAS -Port Richey, FL","vars":["air_pressure","air_temperature","average_wpd","chlorophyll_concentration","conductivity","depth","dewpt_temperature","dissolved_oxygen"]},{"id":"ptit2","lat":26.061,"lon":-97.215,"title":"NDBC Station PTIT2 - 8779770 - Port Isabel, TX","vars":["air_pressure","air_temperature","average_wpd","dewpt_temperature","dominant_wpd","gust","latitude","longitude"]},{"id":"ptbm6","lat":30.213,"lon":-88.505,"title":"NDBC Station PTBM6 - 8741003 - Petit Bois Island, Port of Pascagoula, MS","vars":["air_pressure","air_temperature","average_wpd","dewpt_temperature","dominant_wpd","gust","latitude","longitude"]},{"id":"pstl1","lat":28.932,"lon":-89.407,"title":"NDBC Station PSTL1 - 8760922 - Pilot's Station East, SW Pass, LA","vars":["air_pressure","air_temperature","average_wpd","dewpt_temperature","dominant_wpd","gust","latitude","longitude"]},{"id":"port2","lat":29.867,"lon":-93.931,"title":"NDBC Station PORT2 - 8770475 - Port Arthur, TX","vars":["air_pressure","air_temperature","average_wpd","dewpt_temperature","dominant_wpd","gust","latitude","longitude"]},{"id":"plsf1","lat":24.693,"lon":-82.773,"title":"NDBC Station PLSF1 - Pulaski Shoals Light, FL","vars":["air_pressure","air_temperature","average_wpd","dewpt_temperature","dominant_wpd","gust","gust_dir","gust_spd"]},{"id":"pill1","lat":29.179,"lon":-89.259,"title":"NDBC Station PILL1 - 8760721 - Pilottown, LA","vars":["air_pressure","air_temperature","average_wpd","dewpt_temperature","dominant_wpd","gust","latitude","longitude"]},{"id":"pegf1","lat":26.086,"lon":-80.116,"title":"NDBC Station PEGF1 - 8722956 - Port Everglades, FL","vars":["air_pressure","air_temperature","average_wpd","dewpt_temperature","dominant_wpd","gust","latitude","longitude"]},{"id":"pcnt2","lat":28.446,"lon":-96.396,"title":"NDBC Station PCNT2 - 8773701 - Port O'Connor, Matagorda Bay, TX","vars":["air_pressure","air_temperature","average_wpd","dewpt_temperature","dominant_wpd","gust","latitude","longitude"]},{"id":"pclf1","lat":30.404,"lon":-87.211,"title":"NDBC Station PCLF1 - 8729840 - Pensacola, FL","vars":["air_pressure","air_temperature","average_wpd","dewpt_temperature","dominant_wpd","gust","latitude","longitude"]},{"id":"pcbf1","lat":30.213,"lon":-85.88,"title":"NDBC Station PCBF1 - 8729210 - Panama City Beach, FL","vars":["air_pressure","air_temperature","average_wpd","dewpt_temperature","dominant_wpd","gust","latitude","longitude"]},{"id":"pact2","lat":27.634,"lon":-97.237,"title":"NDBC Station PACT2 - 8775792 - Packery Channel, TX","vars":["air_pressure","air_temperature","average_wpd","dewpt_temperature","dominant_wpd","gust","latitude","longitude"]},{"id":"pacf1","lat":30.15,"lon":-85.664,"title":"NDBC Station PACF1 - 8729108 - Panama City, FL","vars":["air_pressure","air_temperature","average_wpd","dewpt_temperature","dominant_wpd","gust","latitude","longitude"]},{"id":"optf1","lat":27.858,"lon":-82.553,"title":"NDBC Station OPTF1 - 8726607 - Old Port Tampa, FL","vars":["air_pressure","air_temperature","average_wpd","dewpt_temperature","dominant_wpd","gust","latitude","longitude"]},{"id":"nwst2","lat":27.75,"lon":-96.768,"title":"NDBC Station NWST2 - 098: NWS Weather Station 1; Gulf of Mexico","vars":[]},{"id":"nwcl1","lat":30.027,"lon":-90.113,"title":"NDBC Station NWCL1 - 8761927 - New Canal Station, LA","vars":["air_pressure","air_temperature","average_wpd","dewpt_temperature","dominant_wpd","gust","latitude","longitude"]},{"id":"npsf1","lat":26.132,"lon":-81.807,"title":"NDBC Station NPSF1 - 8725110 - Naples, FL","vars":["air_pressure","air_temperature","average_wpd","dewpt_temperature","dominant_wpd","gust","latitude","longitude"]},{"id":"nfbf1","lat":25.084,"lon":-81.096,"title":"NDBC Station NFBF1 - NFB - Northwest Florida Bay, FL","vars":["air_pressure","air_temperature","average_wpd","dewpt_temperature","dominant_wpd","gust","latitude","longitude"]},{"id":"ncht2","lat":29.726,"lon":-95.266,"title":"NDBC Station NCHT2 - 8770777 - Manchester, TX ","vars":["air_pressure","air_temperature","average_wpd","dewpt_temperature","dominant_wpd","gust","latitude","longitude"]},{"id":"mypf1","lat":30.398,"lon":-81.428,"title":"NDBC Station MYPF1 - 8720218 - Mayport (Bar Pilots Dock), FL","vars":["air_pressure","air_temperature","average_wpd","dewpt_temperature","dominant_wpd","gust","latitude","longitude"]},{"id":"mtbf1","lat":27.661,"lon":-82.594,"title":"NDBC Station MTBF1 - 8726412 - Middle Tampa Bay, FL","vars":["air_pressure","air_temperature","average_wpd","dewpt_temperature","dominant_wpd","gust","latitude","longitude"]},{"id":"mrsl1","lat":29.441,"lon":-92.061,"title":"NDBC Station MRSL1 - Marsh Island, LA / CSI03","vars":["air_pressure","air_temperature","average_wpd","dewpt_temperature","dominant_wpd","gust","latitude","longitude"]},{"id":"mqtt2","lat":27.58,"lon":-97.217,"title":"NDBC Station MQTT2 - 8775870 - Bob Hall Pier, Corpus Christi, TX","vars":["air_pressure","air_temperature","average_wpd","dewpt_temperature","dominant_wpd","gust","latitude","longitude"]},{"id":"mist2","lat":27.838,"lon":-97.05,"title":"NDBC Station MIST2 - Ship Channel, Mission-Aransas Reserve, TX","vars":["air_pressure","air_temperature","average_wpd","dewpt_temperature","dominant_wpd","gust","latitude","longitude"]},{"id":"mhbt2","lat":27.828,"lon":-97.201,"title":"NDBC Station MHBT2 - 8775283 - Enbridge, Ingleside, TX","vars":["air_pressure","air_temperature","average_wpd","dewpt_temperature","dominant_wpd","gust","latitude","longitude"]},{"id":"mgpt2","lat":29.682,"lon":-94.985,"title":"NDBC Station MGPT2 - 8770613 - Morgans Point, TX","vars":["air_pressure","air_temperature","average_wpd","dewpt_temperature","dominant_wpd","gust","latitude","longitude"]},{"id":"mcga1","lat":30.649,"lon":-88.058,"title":"NDBC Station MCGA1 - 8736897 - Coast Guard Sector Mobile, AL","vars":["air_pressure","air_temperature","average_wpd","dewpt_temperature","dominant_wpd","gust","latitude","longitude"]},{"id":"mbla1","lat":30.437,"lon":-88.011,"title":"NDBC Station MBLA1 - Middle Bay Lighthouse, AL","vars":["air_pressure","air_temperature","average_wpd","chlorophyll_concentration","conductivity","depth","dewpt_temperature","dissolved_oxygen"]},{"id":"mbet2","lat":28.422,"lon":-96.327,"title":"NDBC Station MBET2 - 8773767 - Matagorda Bay Entrance Channel, TX","vars":["air_pressure","air_temperature","average_wpd","dewpt_temperature","dominant_wpd","gust","latitude","longitude"]},{"id":"maxt2","lat":28.132,"lon":-97.034,"title":"NDBC Station MAXT2 - Copano East, Mission-Aransas Reserve, TX","vars":[]},{"id":"luml1","lat":29.255,"lon":-90.664,"title":"NDBC Station LUML1 - LUMCON Marine Center, LA","vars":["air_pressure","air_temperature","average_wpd","dewpt_temperature","dominant_wpd","gust","latitude","longitude"]},{"id":"luit2","lat":29.076,"lon":-95.122,"title":"NDBC Station LUIT2 - 8771972 - San Luis Pass, TX","vars":["air_pressure","air_temperature","average_wpd","dewpt_temperature","dominant_wpd","gust","latitude","longitude"]},{"id":"lqat2","lat":27.881,"lon":-97.285,"title":"NDBC Station LQAT2 - La Quinta, TX  MET (8775132)","vars":["air_pressure","air_temperature","average_wpd","dewpt_temperature","dominant_wpd","gust","latitude","longitude"]},{"id":"lonf1","lat":24.844,"lon":-80.864,"title":"NDBC Station LONF1 - Long Key, FL","vars":["air_pressure","air_temperature","average_wpd","chlorophyll_concentration","conductivity","depth","dewpt_temperature","dissolved_oxygen"]},{"id":"lkwf1","lat":26.613,"lon":-80.034,"title":"NDBC Station LKWF1 - 8722670 - Lake Worth Pier, FL","vars":["air_pressure","air_temperature","average_wpd","dewpt_temperature","dominant_wpd","gust","gust_dir","gust_spd"]},{"id":"lkpl1","lat":30.315,"lon":-90.281,"title":"NDBC Station LKPL1 - Western Lake Pontchartrain, LA","vars":["air_pressure","air_temperature","average_wpd","dewpt_temperature","dominant_wpd","gust","latitude","longitude"]},{"id":"kywf1","lat":24.556,"lon":-81.808,"title":"NDBC Station KYWF1 - 8724580 - Key West, FL","vars":["air_pressure","air_temperature","average_wpd","dewpt_temperature","dominant_wpd","gust","latitude","longitude"]},{"id":"kata1","lat":30.258,"lon":-88.213,"title":"NDBC Station KATA1 - Katrina Cut, AL","vars":["air_pressure","air_temperature","average_wpd","chlorophyll_concentration","conductivity","depth","dewpt_temperature","dissolved_oxygen"]},{"id":"irdt2","lat":27.48,"lon":-97.322,"title":"NDBC Station IRDT2 - 8776139 - South Bird Island, TX","vars":["air_pressure","air_temperature","average_wpd","dewpt_temperature","dominant_wpd","gust","latitude","longitude"]},{"id":"ildl1","lat":29.053,"lon":-90.533,"title":"NDBC Station ILDL1 - Isle Dernieres, LA / CSI05","vars":["air_pressure","air_temperature","average_wpd","dewpt_temperature","dominant_wpd","gust","latitude","longitude"]},{"id":"hssf1","lat":28.772,"lon":-82.707,"title":"NDBC Station HSSF1 - HOM - Homosassa, FL","vars":["air_pressure","air_temperature","average_wpd","dewpt_temperature","dominant_wpd","gust","latitude","longitude"]},{"id":"hist2","lat":29.595,"lon":-94.39,"title":"NDBC Station HIST2 - 8770808 - High Island, TX","vars":["air_pressure","air_temperature","average_wpd","dewpt_temperature","dominant_wpd","gust","latitude","longitude"]},{"id":"gtxf1","lat":29.658,"lon":-81.233,"title":"NDBC Station GTXF1 - Pellicer Creek, Guana Tolomato Matanzas Reserve, FL","vars":["air_pressure","air_temperature","average_wpd","dewpt_temperature","dominant_wpd","gust","latitude","longitude"]},{"id":"gtot2","lat":29.311,"lon":-94.792,"title":"NDBC Station GTOT2 - 8771450 - Galveston Pier 21, TX","vars":["air_pressure","air_temperature","average_wpd","dewpt_temperature","dominant_wpd","gust","latitude","longitude"]},{"id":"grrt2","lat":29.302,"lon":-94.896,"title":"NDBC Station GRRT2 - 8771486 - Galveston RR Bridge, TX","vars":["air_pressure","air_temperature","average_wpd","dewpt_temperature","dominant_wpd","gust","latitude","longitude"]},{"id":"gnjt2","lat":29.357,"lon":-94.725,"title":"NDBC Station GNJT2 - 8771341 - Galveston Bay Entrance (North Jetty), TX","vars":["air_pressure","air_temperature","average_wpd","dewpt_temperature","dominant_wpd","gust","latitude","longitude"]},{"id":"glpt2","lat":29.285,"lon":-94.787,"title":"NDBC Station GLPT2 - 021: Galveston Pleasure Pier; Gulf of Mexico","vars":["air_pressure","air_temperature","average_wpd","dewpt_temperature","dominant_wpd","gust","latitude","longitude"]},{"id":"gisl1","lat":29.265,"lon":-89.958,"title":"NDBC Station GISL1 - 8761724 - Grand Isle, LA","vars":["air_pressure","air_temperature","average_wpd","dewpt_temperature","dominant_wpd","gust","latitude","longitude"]},{"id":"gdxm6","lat":30.359,"lon":-88.42,"title":"NDBC Station GDXM6 - Crooked Bayou, Grand Bay Reserve, MS","vars":["air_pressure","air_temperature","average_wpd","dewpt_temperature","dominant_wpd","gust","latitude","longitude"]},{"id":"gdil1","lat":29.267,"lon":-89.957,"title":"NDBC Station GDIL1 - Grand Isle, LA","vars":["air_pressure","air_temperature","average_wpd","dewpt_temperature","dominant_wpd","gust","gust_dir","gust_spd"]},{"id":"gcvf1","lat":29.982,"lon":-81.634,"title":"NDBC Station GCVF1 - 8720503 - Red Bay Point, St. Johns River, FL","vars":["air_pressure","air_temperature","average_wpd","dewpt_temperature","dominant_wpd","gust","latitude","longitude"]},{"id":"gbrm6","lat":30.413,"lon":-88.403,"title":"NDBC Station GBRM6 - Grand Bay NERR, Mississippi Sound, MS","vars":[]},{"id":"frwl1","lat":29.552,"lon":-92.305,"title":"NDBC Station FRWL1 - 8766072 - Freshwater Canal Locks, LA","vars":["air_pressure","air_temperature","average_wpd","dewpt_temperature","dominant_wpd","gust","latitude","longitude"]},{"id":"frel1","lat":30.106,"lon":-90.422,"title":"NDBC Station FREL1 - 8762484 - Frenier Landing, LA","vars":["air_pressure","air_temperature","average_wpd","dewpt_temperature","dominant_wpd","gust","latitude","longitude"]},{"id":"frdf1","lat":30.675,"lon":-81.465,"title":"NDBC Station FRDF1 - 8720030 - Fernandina Beach, FL","vars":["air_pressure","air_temperature","average_wpd","dewpt_temperature","dominant_wpd","gust","latitude","longitude"]},{"id":"fmrf1","lat":26.647,"lon":-81.871,"title":"NDBC Station FMRF1 - 8725520 - Fort Myers, FL","vars":["air_pressure","air_temperature","average_wpd","dewpt_temperature","dominant_wpd","gust","latitude","longitude"]},{"id":"fmoa1","lat":30.228,"lon":-88.025,"title":"NDBC Station FMOA1 - 8734673 - Fort Morgan, AL","vars":["air_pressure","air_temperature","average_wpd","dewpt_temperature","dominant_wpd","gust","latitude","longitude"]},{"id":"fhpf1","lat":28.153,"lon":-82.801,"title":"NDBC Station FHPF1 - FHP - Fred Howard Park, FL","vars":["air_pressure","air_temperature","average_wpd","dewpt_temperature","dominant_wpd","gust","latitude","longitude"]},{"id":"fgbl1","lat":28.118,"lon":-93.67,"title":"NDBC Station FGBL1 - High Island 334","vars":["air_pressure","air_temperature","average_wpd","chlorophyll_concentration","conductivity","depth","dewpt_temperature","dissolved_oxygen"]},{"id":"fcgt2","lat":28.933,"lon":-95.3,"title":"NDBC Station FCGT2 - 8772447 - USCG Freeport, TX","vars":["air_pressure","air_temperature","average_wpd","dewpt_temperature","dominant_wpd","gust","latitude","longitude"]},{"id":"ertf1","lat":27.917,"lon":-82.443,"title":"NDBC Station ERTF1 - 8726669 - Berth 223 Met, FL","vars":["air_pressure","air_temperature","average_wpd","dewpt_temperature","dominant_wpd","gust","latitude","longitude"]},{"id":"eptt2","lat":29.481,"lon":-94.917,"title":"NDBC Station EPTT2 - 8771013 - Eagle Point, TX","vars":["air_pressure","air_temperature","average_wpd","dewpt_temperature","dominant_wpd","gust","latitude","longitude"]},{"id":"emat2","lat":28.71,"lon":-95.914,"title":"NDBC Station EMAT2 - 8773146 - Matagorda City, TX","vars":["air_pressure","air_temperature","average_wpd","dewpt_temperature","dominant_wpd","gust","latitude","longitude"]},{"id":"egkf1","lat":27.601,"lon":-82.76,"title":"NDBC Station EGKF1 - EGK - Egmont Key, FL","vars":["air_pressure","air_temperature","average_wpd","chlorophyll_concentration","conductivity","depth","dewpt_temperature","dissolved_oxygen"]},{"id":"dryf1","lat":24.638,"lon":-82.862,"title":"NDBC Station DRYF1 - Dry Tortugas, FL","vars":["air_pressure","air_temperature","average_wpd","dewpt_temperature","dominant_wpd","gust","gust_dir","gust_spd"]},{"id":"dpia1","lat":30.25,"lon":-88.075,"title":"NDBC Station DPIA1 - Dauphin Island, AL","vars":["air_pressure","air_temperature","average_wpd","dewpt_temperature","dominant_wpd","gust","gust_dir","gust_spd"]},{"id":"dila1","lat":30.25,"lon":-88.075,"title":"NDBC Station DILA1 - 8735180 - Dauphin Island, AL ","vars":["air_pressure","air_temperature","average_wpd","dewpt_temperature","dominant_wpd","gust","latitude","longitude"]},{"id":"cwbf1","lat":27.978,"lon":-82.832,"title":"NDBC Station CWBF1 - 8726724 - Clearwater Beach, FL","vars":["air_pressure","air_temperature","average_wpd","dewpt_temperature","dominant_wpd","gust","latitude","longitude"]},{"id":"csbf1","lat":29.672,"lon":-85.357,"title":"NDBC Station CSBF1 - Cape San Blas, FL","vars":["air_pressure","air_temperature","average_wpd","dewpt_temperature","dominant_wpd","gust","gust_dir","gust_spd"]},{"id":"crta1","lat":30.308,"lon":-88.14,"title":"NDBC Station CRTA1 - Cedar Point, AL","vars":["air_pressure","air_temperature","average_wpd","chlorophyll_concentration","conductivity","depth","dewpt_temperature","dissolved_oxygen"]},{"id":"cpnt2","lat":28.118,"lon":-97.022,"title":"NDBC Station CPNT2 - 8774513 - Copano Bay, TX ","vars":["air_pressure","air_temperature","average_wpd","dewpt_temperature","dominant_wpd","gust","latitude","longitude"]},{"id":"clbf1","lat":27.736,"lon":-82.686,"title":"NDBC Station CLBF1 - Clam Bayou, FL","vars":["air_pressure","air_temperature","average_wpd","chlorophyll_concentration","conductivity","depth","dewpt_temperature","dissolved_oxygen"]},{"id":"ckyf1","lat":29.134,"lon":-83.031,"title":"NDBC Station CKYF1 - 8727520 - Cedar Key, FL","vars":["air_pressure","air_temperature","average_wpd","dewpt_temperature","dominant_wpd","gust","latitude","longitude"]},{"id":"capl1","lat":29.768,"lon":-93.343,"title":"NDBC Station CAPL1 - 8768094 - Calcasieu Pass, LA","vars":["air_pressure","air_temperature","average_wpd","dewpt_temperature","dominant_wpd","gust","latitude","longitude"]},{"id":"bygl1","lat":29.789,"lon":-90.42,"title":"NDBC Station BYGL1 - 8762482 - West Bank 1, Bayou Gauche, LA","vars":["air_pressure","air_temperature","average_wpd","dewpt_temperature","dominant_wpd","gust","latitude","longitude"]},{"id":"burl1","lat":28.906,"lon":-89.429,"title":"NDBC Station BURL1 - Southwest Pass, LA","vars":["air_pressure","air_temperature","average_wpd","dewpt_temperature","dominant_wpd","gust","gust_dir","gust_spd"]},{"id":"bsca1","lat":30.329,"lon":-87.829,"title":"NDBC Station BSCA1 - Bon Secour, AL","vars":["air_pressure","air_temperature","average_wpd","chlorophyll_concentration","conductivity","depth","dewpt_temperature","dissolved_oxygen"]},{"id":"bgcf1","lat":26.404,"lon":-81.881,"title":"NDBC Station BGCF1 - BCP - Big Carlos Pass, FL","vars":["air_pressure","air_temperature","average_wpd","dewpt_temperature","dominant_wpd","gust","latitude","longitude"]},{"id":"babt2","lat":27.297,"lon":-97.405,"title":"NDBC Station BABT2 - 8776604 - Baffin Bay, TX","vars":["air_pressure","air_temperature","average_wpd","dewpt_temperature","dominant_wpd","gust","latitude","longitude"]},{"id":"awrt2","lat":28.227,"lon":-96.796,"title":"NDBC Station AWRT2 - 8774230 - Aransas Wildlife Refuge, TX","vars":["air_pressure","air_temperature","average_wpd","dewpt_temperature","dominant_wpd","gust","latitude","longitude"]},{"id":"arpf1","lat":28.433,"lon":-82.667,"title":"NDBC Station ARPF1 - APK - Aripeka, FL","vars":["air_pressure","air_temperature","average_wpd","chlorophyll_concentration","conductivity","depth","dewpt_temperature","dissolved_oxygen"]},{"id":"apxf1","lat":29.769,"lon":-84.881,"title":"NDBC Station APXF1 - East Bay, Apalachicola Reserve, FL","vars":["air_pressure","air_temperature","average_wpd","dewpt_temperature","dominant_wpd","gust","latitude","longitude"]},{"id":"apcf1","lat":29.724,"lon":-84.98,"title":"NDBC Station APCF1 - 8728690 - Apalachicola, FL","vars":["air_pressure","air_temperature","average_wpd","dewpt_temperature","dominant_wpd","gust","latitude","longitude"]},{"id":"anpt2","lat":27.837,"lon":-97.039,"title":"NDBC Station ANPT2 - 8775241 - Aransas, Aransas Pass, TX","vars":["air_pressure","air_temperature","average_wpd","dewpt_temperature","dominant_wpd","gust","latitude","longitude"]},{"id":"anmf1","lat":27.54,"lon":-82.74,"title":"NDBC Station ANMF1 - ANM - Anna Maria, FL","vars":["air_pressure","air_temperature","average_wpd","dewpt_temperature","dominant_wpd","gust","latitude","longitude"]},{"id":"ancf1","lat":28.193,"lon":-82.789,"title":"NDBC Station ANCF1 - Anclote Gulf Park, FL","vars":["air_pressure","air_temperature","average_wpd","chlorophyll_concentration","conductivity","depth","dewpt_temperature","dissolved_oxygen"]},{"id":"amrl1","lat":29.45,"lon":-91.338,"title":"NDBC Station AMRL1 - 8764227 - LAWMA, Amerada Pass, LA","vars":["air_pressure","air_temperature","average_wpd","dewpt_temperature","dominant_wpd","gust","latitude","longitude"]},{"id":"42409","lat":25.799,"lon":-89.291,"title":"NDBC Station 42409 - GULF OF AMERICA - 247 NM South of New Orleans, LA","vars":["event_mode","height","latitude","longitude","time"]},{"id":"42408","lat":25.2,"lon":-87.0,"title":"NDBC Station 42408 - EAST GULF of MEXICO - 225NM WNW of Loggerhead Key, FL  ","vars":["event_mode","height","latitude","longitude","time"]},{"id":"42099","lat":27.352,"lon":-84.275,"title":"NDBC Station 42099 - Offshore St. Petersburg, FL (144)","vars":["air_pressure","air_temperature","average_wpd","depth","dewpt_temperature","dominant_wpd","frequency","gust"],"current":{"wvht":2.9,"dpd":9.0,"wtmp":20.7}},{"id":"42098","lat":27.59,"lon":-82.931,"title":"NDBC Station 42098 - Egmont Channel Entrance, FL (214)","vars":["air_pressure","air_temperature","average_wpd","depth","dewpt_temperature","dominant_wpd","frequency","gust"],"current":{"wvht":1.7,"dpd":7.0,"atmp":10.6,"wtmp":17.4}},{"id":"42097","lat":25.704,"lon":-83.654,"title":"NDBC Station 42097 - Pulley Ridge, FL (226)","vars":["air_pressure","air_temperature","average_wpd","dewpt_temperature","dominant_wpd","frequency","gust","latitude"],"current":{"wvht":2.6,"dpd":10.0,"wtmp":21.0}},{"id":"42092","lat":27.64,"lon":-97.011,"title":"NDBC Station 42092 - Aransas Pass Channel Entrance S, TX (252)","vars":["air_pressure","air_temperature","average_wpd","dewpt_temperature","dominant_wpd","frequency","gust","latitude"]},{"id":"42091","lat":29.088,"lon":-92.505,"title":"NDBC Station 42091 - Trinity Shoal, LA (255)","vars":["air_pressure","air_temperature","average_wpd","dewpt_temperature","dominant_wpd","frequency","gust","latitude"]},{"id":"42080","lat":24.396,"lon":-81.934,"title":"NDBC Station 42080 - Offshore Sand Key, FL","vars":["air_pressure","air_temperature","average_wpd","depth","dewpt_temperature","dominant_wpd","frequency","gust"]},{"id":"42067","lat":30.05,"lon":-88.583,"title":"NDBC Station 42067 - USM-R1","vars":["air_pressure","air_temperature","average_wpd","chlorophyll_concentration","conductivity","depth","dewpt_temperature","dissolved_oxygen"],"current":{"wspd":7.0,"wvht":0.7,"atmp":8.2,"wtmp":17.6}},{"id":"42056","lat":19.82,"lon":-84.98,"title":"NDBC Station 42056 -  Yucatan Basin - 120 NM ESE of Cozumel, MX","vars":["air_pressure","air_temperature","average_wpd","dewpt_temperature","dominant_wpd","frequency","gust","gust_dir"],"current":{"wspd":12.0,"wdir":10.0,"wvht":3.5,"dpd":8.0,"atmp":23.3,"wtmp":26.6}},{"id":"42055","lat":22.14,"lon":-94.112,"title":"NDBC Station 42055 - BAY OF CAMPECHE - 214 NM NE of Veracruz, MX","vars":["air_pressure","air_temperature","average_wpd","dewpt_temperature","dominant_wpd","frequency","gust","gust_dir"],"current":{"wspd":9.0,"wdir":20.0,"atmp":20.7,"wtmp":24.2}},{"id":"42054","lat":26.0,"lon":-87.731,"title":"NDBC Station 42054 - East Gulf","vars":["air_pressure","air_temperature","average_wpd","dewpt_temperature","dominant_wpd","frequency","gust","gust_dir"]},{"id":"42053","lat":29.551,"lon":-88.504,"title":"NDBC Station 42053 - Pascagoula South","vars":["air_pressure","air_temperature","average_wpd","dewpt_temperature","dominant_wpd","frequency","gust","latitude"]},{"id":"42046","lat":27.89,"lon":-94.037,"title":"NDBC Station 42046 - GERG Flower Gardens Buoy N","vars":["air_pressure","air_temperature","average_wpd","chlorophyll_concentration","conductivity","depth","dewpt_temperature","dissolved_oxygen"]},{"id":"42045","lat":26.217,"lon":-96.5,"title":"NDBC Station 42045 - TGLO TABS Buoy K","vars":["air_pressure","air_temperature","average_wpd","chlorophyll_concentration","conductivity","depth","dewpt_temperature","dissolved_oxygen"]},{"id":"42044","lat":26.191,"lon":-97.051,"title":"NDBC Station 42044 - TGLO TABS Buoy J","vars":["air_pressure","air_temperature","average_wpd","chlorophyll_concentration","conductivity","depth","dewpt_temperature","dissolved_oxygen"]},{"id":"42043","lat":28.982,"lon":-94.899,"title":"NDBC Station 42043 - TGLO TABS Buoy B","vars":["air_pressure","air_temperature","average_wpd","chlorophyll_concentration","conductivity","depth","dewpt_temperature","dissolved_oxygen"]},{"id":"42042","lat":29.887,"lon":-88.324,"title":"NDBC Station 42042 - Pascagoula","vars":["air_pressure","air_temperature","average_wpd","dewpt_temperature","dominant_wpd","frequency","gust","latitude"]},{"id":"42041","lat":27.504,"lon":-90.462,"title":"NDBC Station 42041 - North Mid Gulf 110NM South of Grand Isle, LA","vars":["air_pressure","air_temperature","average_wpd","depth","dewpt_temperature","dominant_wpd","frequency","gust"]},{"id":"42040","lat":29.207,"lon":-88.237,"title":"NDBC Station 42040 - LUKE OFFSHORE TEST PLATFORM - 63 NM South of Dauphin Island","vars":["air_pressure","air_temperature","average_wpd","dewpt_temperature","dominant_wpd","frequency","gust","gust_dir"],"current":{"wspd":10.0,"wdir":320.0,"wvht":1.6,"dpd":6.0}},{"id":"42039","lat":28.787,"lon":-86.007,"title":"NDBC Station 42039 - PENSACOLA - 115NM SSE of Pensacola, FL","vars":["air_pressure","air_temperature","average_wpd","dewpt_temperature","dominant_wpd","frequency","gust","gust_dir"]},{"id":"42038","lat":27.421,"lon":-92.554,"title":"NDBC Station 42038 - North Mid Gulf of Mexico","vars":["air_pressure","air_temperature","average_wpd","depth","dewpt_temperature","dominant_wpd","frequency","gust"]},{"id":"42036","lat":28.5,"lon":-84.505,"title":"NDBC Station 42036 - WEST TAMPA  - 112 NM WNW of Tampa, FL","vars":["air_pressure","air_temperature","average_wpd","chlorophyll_concentration","conductivity","depth","dewpt_temperature","dissolved_oxygen"],"current":{"wspd":9.0,"wdir":330.0,"wvht":2.2,"dpd":7.0,"atmp":9.9,"wtmp":18.5}},{"id":"42035","lat":29.235,"lon":-94.41,"title":"NDBC Station 42035 - GALVESTON,TX -  22 NM East of Galveston, TX","vars":["air_pressure","air_temperature","average_wpd","dewpt_temperature","dominant_wpd","frequency","gust","gust_dir"],"current":{"wspd":1.0,"wdir":340.0,"wvht":0.6,"dpd":4.0,"atmp":11.4,"wtmp":16.0}},{"id":"42024","lat":27.464,"lon":-84.219,"title":"NDBC Station 42024 - C16 - W. FL MERHAB","vars":["depth","latitude","longitude","time","water_dir","water_spd"]},{"id":"42023","lat":26.01,"lon":-83.086,"title":"NDBC Station 42023 - C13 - WFS South Buoy, 50m Isobath","vars":["air_pressure","air_temperature","average_wpd","chlorophyll_concentration","conductivity","depth","dewpt_temperature","dissolved_oxygen"],"current":{"wspd":11.0,"wdir":330.0,"atmp":13.3,"wtmp":20.5}},{"id":"42022","lat":27.505,"lon":-83.741,"title":"NDBC Station 42022 - C12 - WFS Central Buoy, 50m Isobath","vars":["air_pressure","air_temperature","average_wpd","chlorophyll_concentration","conductivity","depth","dewpt_temperature","dissolved_oxygen"],"current":{"wspd":11.0,"wdir":340.0,"atmp":11.0,"wtmp":18.9}},{"id":"42021","lat":28.311,"lon":-83.306,"title":"NDBC Station 42021 - C14 - Pasco County Buoy, FL","vars":["air_pressure","air_temperature","average_wpd","chlorophyll_concentration","conductivity","depth","dewpt_temperature","dissolved_oxygen"]},{"id":"42020","lat":26.97,"lon":-96.679,"title":"NDBC Station 42020 - CORPUS CHRISTI, TX - 60NM SSE of Corpus Christi, TX","vars":["air_pressure","air_temperature","average_wpd","depth","dewpt_temperature","dominant_wpd","frequency","gust"],"current":{"wspd":5.0,"wdir":40.0,"wvht":1.6,"dpd":8.0,"atmp":16.0,"wtmp":21.8}},{"id":"42019","lat":27.908,"lon":-95.343,"title":"NDBC Station 42019 - FREEPORT, TX - 60 NM South of Freeport, TX","vars":["air_pressure","air_temperature","average_wpd","dewpt_temperature","dominant_wpd","frequency","gust","gust_dir"],"current":{"wspd":5.0,"wdir":30.0,"wvht":1.6,"dpd":7.0,"atmp":13.8,"wtmp":21.3}},{"id":"42014","lat":25.254,"lon":-82.22,"title":"NDBC Station 42014 - C17 - W. FL Sea-Coos","vars":["air_pressure","air_temperature","average_wpd","dewpt_temperature","dominant_wpd","gust","latitude","longitude"]},{"id":"42013","lat":27.173,"lon":-82.924,"title":"NDBC Station 42013 - C10 - WFS Central Buoy, 25m Isobath","vars":["air_pressure","air_temperature","average_wpd","chlorophyll_concentration","conductivity","depth","dewpt_temperature","dissolved_oxygen"],"current":{"wspd":10.0,"wdir":340.0,"wtmp":17.5}},{"id":"42012","lat":30.06,"lon":-87.548,"title":"NDBC Station 42012 - ORANGE BEACH - 44 NM SE of Mobile, AL","vars":["air_pressure","air_temperature","average_wpd","dewpt_temperature","dominant_wpd","frequency","gust","gust_dir"],"current":{"wspd":8.0,"wdir":330.0,"wvht":0.8,"dpd":4.0,"atmp":9.8,"wtmp":17.5}},{"id":"42007","lat":30.09,"lon":-88.769,"title":"NDBC Station 42007 - BILOXI - 22 NM SSE of Biloxi, MS","vars":["air_pressure","air_temperature","average_wpd","dewpt_temperature","dominant_wpd","frequency","gust","gust_dir"]},{"id":"42003","lat":25.925,"lon":-85.616,"title":"NDBC Station 42003 - East GULF - 208 NM West of Naples, FL","vars":["air_pressure","air_temperature","average_wpd","dewpt_temperature","dominant_wpd","frequency","gust","gust_dir"]},{"id":"42002","lat":25.95,"lon":-93.78,"title":"NDBC Station 42002 - WEST GULF - 207 NM East of Brownsville, TX","vars":["air_pressure","air_temperature","average_wpd","depth","dewpt_temperature","dominant_wpd","frequency","gust"],"current":{"wspd":7.0,"wdir":20.0,"atmp":16.8,"wtmp":24.0}},{"id":"42001","lat":25.926,"lon":-89.662,"title":"NDBC Station 42001 - MID GULF - 180 nm South of Southwest Pass, LA","vars":["air_pressure","air_temperature","average_wpd","depth","dewpt_temperature","dominant_wpd","frequency","gust"],"current":{"wspd":10.0,"wdir":360.0,"atmp":15.6,"wtmp":24.5}},{"id":"41117","lat":29.999,"lon":-81.079,"title":"NDBC Station 41117 - St. Augustine, FL (194)","vars":["air_pressure","air_temperature","average_wpd","depth","dewpt_temperature","dominant_wpd","frequency","gust"],"current":{"wvht":1.3,"dpd":6.0,"wtmp":14.5}},{"id":"41114","lat":27.552,"lon":-80.216,"title":"NDBC Station 41114 - Fort Pierce, FL (134)","vars":["air_pressure","air_temperature","average_wpd","dewpt_temperature","dominant_wpd","frequency","gust","latitude"],"current":{"wvht":1.5,"dpd":11.0,"wtmp":21.1}},{"id":"41113","lat":28.4,"lon":-80.533,"title":"NDBC Station 41113 - Cape Canaveral Nearshore, FL (143)","vars":["air_pressure","air_temperature","average_wpd","dewpt_temperature","dominant_wpd","frequency","gust","latitude"],"current":{"wvht":0.7,"dpd":12.0,"wtmp":19.7}},{"id":"41112","lat":30.709,"lon":-81.292,"title":"NDBC Station 41112 - Offshore Fernandina Beach, FL (132)","vars":["air_pressure","air_temperature","average_wpd","depth","dewpt_temperature","dominant_wpd","frequency","gust"],"current":{"wvht":0.9,"dpd":5.0,"wtmp":12.9}},{"id":"41012","lat":30.042,"lon":-80.534,"title":"NDBC Station 41012 - St. Augustine, FL 40NM ENE of St Augustine, FL","vars":["air_pressure","air_temperature","average_wpd","chlorophyll_concentration","conductivity","correlation_magnitude1","correlation_magnitude2","correlation_magnitude3"]},{"id":"41009","lat":28.508,"lon":-80.185,"title":"NDBC Station 41009 - CANAVERAL 20 NM East of Cape Canaveral, FL","vars":["air_pressure","air_temperature","average_wpd","chlorophyll_concentration","conductivity","depth","dewpt_temperature","dissolved_oxygen"],"current":{"wspd":7.0,"wdir":320.0,"wvht":2.0,"dpd":11.0,"atmp":9.8,"wtmp":21.4}},{"id":"41008","lat":31.4,"lon":-80.866,"title":"NDBC Station 41008 - GRAYS REEF - 40 NM Southeast of Savannah, GA","vars":["air_pressure","air_temperature","average_wpd","correlation_magnitude1","correlation_magnitude2","correlation_magnitude3","correlation_magnitude4","depth"],"current":{"wspd":8.0,"wdir":300.0,"wvht":0.9,"atmp":6.7}}]}